{"features": [{"geometry": {"coordinates": [13.416095220528, 52.542503599603], "type": "Point"}, "properties": {"address": "Lychener Str. 23", "id": 91909, "name": "Bar 23", "subCategory": "Bar"}, "type": "Feature"}, {"geometry": {"coordinates": [13.439218, 52.499662], "type": "Point"}, "properties": {"address": "Wrangelstra\u00dfe 93", "id": 91910, "name": "Sofia", "subCategory": "Caf\u00e9"}, "type": "Feature"}, {"geometry": {"coordinates": [13.426333553402, 52.508052842516], "type": "Point"}, "properties": {"address": "K\u00f6penicker Stra\u00dfe 137", "id": 91912, "name": "K\u00f6pi", "subCategory": "Rock Club"}, "type": "Feature"}, {"geometry": {"coordinates": [13.387613296509, 52.518336173879], "type": "Point"}, "properties": {"address": "Friedrichstr. 151", "id": 91917, "name": "Maritim proArte Hotel Berlin", "subCategory": "Hotel"}, "type": "Feature"}, {"geometry": {"coordinates": [13.34445254, 52.503279], "type": "Point"}, "properties": {"address": "Bayreuther Stra\u00dfe 42", "id": 91995, "name": "SORAT Hotel Ambassador Berlin", "subCategory": "Hotel"}, "type": "Feature"}, {"geometry": {"coordinates": [13.421982957295, 52.541703653439], "type": "Point"}, "properties": {"address": "Raumerstra\u00dfe 17", "id": 92012, "name": "Cocktail Bar X", "subCategory": "Cocktail Bar"}, "type": "Feature"}, {"geometry": {"coordinates": [13.351513, 52.487675], "type": "Point"}, "properties": {"address": "Wartburgstra\u00dfe 54", "id": 92013, "name": "Pinguin Club", "subCategory": "Bar"}, "type": "Feature"}, {"geometry": {"coordinates": [13.324902694366, 52.504698864794], "type": "Point"}, "properties": {"address": "Jeanne Mammen Bogen 576/577", "id": 92016, "name": "Gainsbourg", "subCategory": "Bar"}, "type": "Feature"}, {"geometry": {"coordinates": [13.378601074219, 52.486752629238], "type": "Point"}, "properties": {"address": "Dudenstra\u00dfe 40-64", "id": 92018, "name": "Golgatha", "subCategory": "Beer Garden"}, "type": "Feature"}, {"geometry": {"coordinates": [13.35317612671, 52.496941517114], "type": "Point"}, "properties": {"address": "Winterfeldtstr. 50", "id": 92021, "name": "Green Door", "subCategory": "Cocktail Bar"}, "type": "Feature"}, {"geometry": {"coordinates": [13.38778697917, 52.528817652004], "type": "Point"}, "properties": {"address": "Novalisstra\u00dfe 11", "id": 92023, "name": "Cocktailbar Reingold", "subCategory": "Bar"}, "type": "Feature"}, {"geometry": {"coordinates": [13.386867221923, 52.521162446849], "type": "Point"}, "properties": {"address": "Schiffbauerdamm 5", "id": 92024, "name": "Van Gogh", "subCategory": "Bar"}, "type": "Feature"}, {"geometry": {"coordinates": [13.417070444546, 52.535518574126], "type": "Point"}, "properties": {"address": "Ecke Knaackstr. 37", "id": 92026, "name": "Gugelhof", "subCategory": "French Restaurant"}, "type": "Feature"}, {"geometry": {"coordinates": [13.400774, 52.527748], "type": "Point"}, "properties": {"address": "Auguststr. 49a", "id": 92027, "name": "Hackbarth\u2019s", "subCategory": "Bar"}, "type": "Feature"}, {"geometry": {"coordinates": [13.35252, 52.494838], "type": "Point"}, "properties": {"address": "Hohenstaufenstr. 4", "id": 92029, "name": "Mutter", "subCategory": "Cocktail Bar"}, "type": "Feature"}, {"geometry": {"coordinates": [13.38747208491, 52.525206727678], "type": "Point"}, "properties": {"address": "Friedrichstr. 112A", "id": 92030, "name": "The Oscar Wilde Irish Pub", "subCategory": "Pub"}, "type": "Feature"}, {"geometry": {"coordinates": [13.39344, 52.526005], "type": "Point"}, "properties": {"address": "Tucholskystr. 30", "id": 92031, "name": "Zosch", "subCategory": "Bar"}, "type": "Feature"}, {"geometry": {"coordinates": [13.352039553257, 52.539833], "type": "Point"}, "properties": {"address": "Nordufer 10", "id": 92033, "name": "Deichgraf", "subCategory": "Beer Garden"}, "type": "Feature"}, {"geometry": {"coordinates": [13.329605, 52.498183], "type": "Point"}, "properties": {"address": "Schaperstr. 24", "id": 92035, "name": "Bar jeder Vernunft", "subCategory": "Theater"}, "type": "Feature"}, {"geometry": {"coordinates": [13.401695138753, 52.522224791485], "type": "Point"}, "properties": {"address": "Am Zwirngraben 17-20", "id": 92038, "name": "Kilkenny Irish Pub", "subCategory": "Bar"}, "type": "Feature"}, {"geometry": {"coordinates": [13.353332151865, 52.485054775788], "type": "Point"}, "properties": {"address": "Hauptstra\u00dfe 30", "id": 92045, "name": "Havanna", "subCategory": "Nightclub"}, "type": "Feature"}, {"geometry": {"coordinates": [13.411602951025, 52.547566135973], "type": "Point"}, "properties": {"address": "Gleimstr. 33-35", "id": 92046, "name": "The Dubliner Pub", "subCategory": "Bar"}, "type": "Feature"}, {"geometry": {"coordinates": [13.421753, 52.500625], "type": "Point"}, "properties": {"address": "Oranienstra\u00dfe 187", "id": 92048, "name": "Roses", "subCategory": "Gay Bar"}, "type": "Feature"}, {"geometry": {"coordinates": [13.4109242, 52.5474722], "type": "Point"}, "properties": {"address": "Gleimstr. 23", "id": 92049, "name": "Schall & Rauch", "subCategory": "Restaurant"}, "type": "Feature"}, {"geometry": {"coordinates": [13.411736143807, 52.531760342004], "type": "Point"}, "properties": {"address": "Fehrbelliner Str. 92", "id": 92051, "name": "Pfefferberg", "subCategory": "General Entertainment"}, "type": "Feature"}, {"geometry": {"coordinates": [13.420817, 52.500888], "type": "Point"}, "properties": {"address": "Oranienstra\u00dfe 183", "id": 92054, "name": "Bierhimmel", "subCategory": "Gay Bar"}, "type": "Feature"}, {"geometry": {"coordinates": [13.350303, 52.53947], "type": "Point"}, "properties": {"address": "Nordufer 15", "id": 92055, "name": "Lindengarten", "subCategory": "Beer Garden"}, "type": "Feature"}, {"geometry": {"coordinates": [13.404650688171, 52.523153999709], "type": "Point"}, "properties": {"address": "Dircksenstr. 142", "id": 92063, "name": "Riva Bar", "subCategory": "Cocktail Bar"}, "type": "Feature"}, {"geometry": {"coordinates": [13.3218672, 52.5063659], "type": "Point"}, "properties": {"address": "Savignyplatz 7", "id": 92065, "name": "Zwiebelfisch", "subCategory": "Bar"}, "type": "Feature"}, {"geometry": {"coordinates": [13.428869000131, 52.498525293805], "type": "Point"}, "properties": {"address": "Wiener Stra\u00dfe 14", "id": 92073, "name": "Wiener Blut", "subCategory": "Bar"}, "type": "Feature"}, {"geometry": {"coordinates": [13.363914334058, 52.501293573307], "type": "Point"}, "properties": {"address": "Potsdamer Str. 102", "id": 92076, "name": "Victoria Bar", "subCategory": "Cocktail Bar"}, "type": "Feature"}, {"geometry": {"coordinates": [13.197817504406, 52.494087245846], "type": "Point"}, "properties": {"address": "Stra\u00dfe am Schildhorn 4a", "id": 92077, "name": "Wirtshaus Schildhorn", "subCategory": "Beer Garden"}, "type": "Feature"}, {"geometry": {"coordinates": [13.321257270158, 52.507290714301], "type": "Point"}, "properties": {"address": "Grolmanstr. 52", "id": 92078, "name": "Florian", "subCategory": "Restaurant"}, "type": "Feature"}, {"geometry": {"coordinates": [13.412190811236, 52.53134907858], "type": "Point"}, "properties": {"address": "Sch\u00f6nhauser Allee 176a", "id": 92081, "name": "Bassy Cowboy Club", "subCategory": "Nightclub"}, "type": "Feature"}, {"geometry": {"coordinates": [13.391402824555, 52.51298503304], "type": "Point"}, "properties": {"address": "Charlottenstr. 57", "id": 92082, "name": "Newton Bar", "subCategory": "Whisky Bar"}, "type": "Feature"}, {"geometry": {"coordinates": [13.405997, 52.539982], "type": "Point"}, "properties": {"address": "Oderberger Stra\u00dfe 27", "id": 92086, "name": "Oderquelle", "subCategory": "Pub"}, "type": "Feature"}, {"geometry": {"coordinates": [13.407611846924, 52.539118246728], "type": "Point"}, "properties": {"address": "Oderberger Stra\u00dfe 46", "id": 92087, "name": "Nemo", "subCategory": "Bar"}, "type": "Feature"}, {"geometry": {"coordinates": [13.392174, 52.489349], "type": "Point"}, "properties": {"address": "Bergmannstr. 93", "id": 92090, "name": "Turandot", "subCategory": "Pub"}, "type": "Feature"}, {"geometry": {"coordinates": [13.5000157, 52.5300258], "type": "Point"}, "properties": {"address": "Siegfried Stra\u00dfe 136", "id": 92092, "name": "Play Off Sports Bar", "subCategory": "Sports Bar"}, "type": "Feature"}, {"geometry": {"coordinates": [13.45668021153, 52.510684255263], "type": "Point"}, "properties": {"address": "Krossener Stra\u00dfe 15", "id": 92093, "name": "Paules Metal-Eck", "subCategory": "Dive Bar"}, "type": "Feature"}, {"geometry": {"coordinates": [13.372748567773, 52.507403603678], "type": "Point"}, "properties": {"address": "Marlene-Dietrich-Platz 1", "id": 92095, "name": "Adagio Berlin", "subCategory": "Nightclub"}, "type": "Feature"}, {"geometry": {"coordinates": [13.456896, 52.511282], "type": "Point"}, "properties": {"address": "Simon-Dach-Str. 40", "id": 92112, "name": "Astro Bar", "subCategory": "Bar"}, "type": "Feature"}, {"geometry": {"coordinates": [13.349487087796, 52.498197359592], "type": "Point"}, "properties": {"address": "Motzstrasse 19", "id": 92113, "name": "Tom's Bar", "subCategory": "Gay Bar"}, "type": "Feature"}, {"geometry": {"coordinates": [13.326879467477, 52.498234010809], "type": "Point"}, "properties": {"address": "Fasanenstr. 40", "id": 92114, "name": "Rumtrader", "subCategory": "Bar"}, "type": "Feature"}, {"geometry": {"coordinates": [13.338636159897, 52.527356000671], "type": "Point"}, "properties": {"address": "Arminiusstr. 2-4", "id": 92116, "name": "BrewBaker", "subCategory": "Brewery"}, "type": "Feature"}, {"geometry": {"coordinates": [13.4343801, 52.5318417], "type": "Point"}, "properties": {"address": "B\u00f6tzowstra\u00dfe 31", "id": 92117, "name": "Saphire Bar", "subCategory": "Cocktail Bar"}, "type": "Feature"}, {"geometry": {"coordinates": [13.460513771458, 52.508866000305], "type": "Point"}, "properties": {"address": "W\u00fchlischstr. 22", "id": 92120, "name": "Hops & Barley", "subCategory": "Brewery"}, "type": "Feature"}, {"geometry": {"coordinates": [13.388600349426, 52.516566893821], "type": "Point"}, "properties": {"address": "Friedrichstra\u00dfe", "id": 92121, "name": "Cookies", "subCategory": "Nightclub"}, "type": "Feature"}, {"geometry": {"coordinates": [13.387055194049, 52.490853323544], "type": "Point"}, "properties": {"address": "Mehringdamm 61", "id": 92122, "name": "SchwuZ", "subCategory": "Nightclub"}, "type": "Feature"}, {"geometry": {"coordinates": [13.459153175354, 52.515744252261], "type": "Point"}, "properties": {"address": "Frankfurter Allee 23", "id": 92123, "name": "Sanatorium 23", "subCategory": "Bar"}, "type": "Feature"}], "type": "FeatureCollection"}