{"features": [{"geometry": {"coordinates": [13.329553201365, 52.46231159131], "type": "Point"}, "properties": {"address": "Schlo\u00dfstr. 112", "id": 100000, "name": "Kinderarztpraxis Karajoli", "subCategory": "Doctor's Office"}, "type": "Feature"}, {"geometry": {"coordinates": [13.434856, 52.553599], "type": "Point"}, "properties": {"address": "Gustav-Adolf-Stra\u00dfe 17", "id": 100002, "name": "tape.tv 'das original'", "subCategory": "Meeting Room"}, "type": "Feature"}, {"geometry": {"coordinates": [13.369347926365, 52.52508432823], "type": "Point"}, "properties": {"address": "Hauptbahnhof", "id": 100003, "name": "Gleis 5/6", "subCategory": "Platform"}, "type": "Feature"}, {"geometry": {"coordinates": [13.271649644953, 52.437745544083], "type": "Point"}, "properties": {"address": "Berliner Stra\u00dfe 39", "id": 100013, "name": "Bushaltestelle Winfriedstr.", "subCategory": "Bus Line"}, "type": "Feature"}, {"geometry": {"coordinates": [13.422512, 52.545334], "type": "Point"}, "properties": {"address": "Dunckerstr. 68", "id": 100018, "name": "Herbst & Deters Fiktion\u00e4re", "subCategory": "Library"}, "type": "Feature"}, {"geometry": {"coordinates": [13.369631767273, 52.524772879485], "type": "Point"}, "properties": {"address": "Hauptbahnhof", "id": 100030, "name": "Gleis 11/12", "subCategory": "Platform"}, "type": "Feature"}, {"geometry": {"coordinates": [13.319999180953, 52.452617806173], "type": "Point"}, "properties": {"address": "", "id": 100032, "name": "H Carmerplatz", "subCategory": "Bus Station"}, "type": "Feature"}, {"geometry": {"coordinates": [13.301484521344, 52.506744357371], "type": "Point"}, "properties": {"address": "Kantstra\u00dfe 69", "id": 100036, "name": "Bushaltestelle Kaiser-Friedrich-Stra\u00dfe", "subCategory": "Bus Station"}, "type": "Feature"}, {"geometry": {"coordinates": [13.279957, 52.501668], "type": "Point"}, "properties": {"address": "BAB 100", "id": 100037, "name": "Dreieck Funkturm", "subCategory": "Road"}, "type": "Feature"}, {"geometry": {"coordinates": [13.42934, 52.49767], "type": "Point"}, "properties": {"address": "Lausitzer Stra\u00dfe 46, Berlin-Kreuzberg, Deutschland", "id": 100038, "name": "Neriman Fahrali", "subCategory": ""}, "type": "Feature"}, {"geometry": {"coordinates": [13.482071, 52.491144], "type": "Point"}, "properties": {"address": "Am Speicher 7", "id": 100040, "name": "Schiffskontor Stralau", "subCategory": "Boat or Ferry"}, "type": "Feature"}, {"geometry": {"coordinates": [13.294701, 52.51952], "type": "Point"}, "properties": {"address": "Spandauer Damm", "id": 100042, "name": "Taxihalte Schlo\u00df Charlottenburg", "subCategory": "Taxi"}, "type": "Feature"}, {"geometry": {"coordinates": [13.401866555214, 52.580574663717], "type": "Point"}, "properties": {"address": "Hermann-Hesse-Stra\u00dfe", "id": 100044, "name": "H Hermann-Hesse-Stra\u00dfe / Waldstra\u00dfe", "subCategory": "Light Rail"}, "type": "Feature"}, {"geometry": {"coordinates": [13.354528, 52.596754], "type": "Point"}, "properties": {"address": "", "id": 100048, "name": "Taxihalte Senftenberger Ring", "subCategory": "Taxi"}, "type": "Feature"}, {"geometry": {"coordinates": [13.375142274014, 52.555116671003], "type": "Point"}, "properties": {"address": "", "id": 100049, "name": "Schwedenstra\u00dfe", "subCategory": "Road"}, "type": "Feature"}, {"geometry": {"coordinates": [13.317109755808, 52.491723090068], "type": "Point"}, "properties": {"address": "Hohenzollerndamm 27", "id": 100052, "name": "Clinica Vita", "subCategory": "Hospital"}, "type": "Feature"}, {"geometry": {"coordinates": [13.453894231478, 52.463120159322], "type": "Point"}, "properties": {"address": "BAB 100", "id": 100054, "name": "Dreieck Neuk\u00f6lln", "subCategory": "Road"}, "type": "Feature"}, {"geometry": {"coordinates": [13.445514120386, 52.546115834953], "type": "Point"}, "properties": {"address": "", "id": 100055, "name": "\u00c4rztehaus", "subCategory": "Medical Center"}, "type": "Feature"}, {"geometry": {"coordinates": [13.382328, 52.483172], "type": "Point"}, "properties": {"address": "Manfred- von- Richthofenstr. 16", "id": 100056, "name": "Zahn\u00e4rztliche Praxisgemeinschaft Dr. Grun & von Saurma-Jeltsch", "subCategory": "Dentist's Office"}, "type": "Feature"}, {"geometry": {"coordinates": [13.243138790131, 52.618044757116], "type": "Point"}, "properties": {"address": "Ruppiner Chaussee 268", "id": 100060, "name": "B\u00fcrgeramt Heiligensee", "subCategory": "City Hall"}, "type": "Feature"}, {"geometry": {"coordinates": [13.294797, 52.552496], "type": "Point"}, "properties": {"address": "", "id": 100066, "name": "@Platte (TXL)", "subCategory": "Taxi"}, "type": "Feature"}, {"geometry": {"coordinates": [13.291203975677, 52.533636494015], "type": "Point"}, "properties": {"address": "A100", "id": 100071, "name": "Dreieck Charlottenburg", "subCategory": "Road"}, "type": "Feature"}, {"geometry": {"coordinates": [13.293511, 52.445622], "type": "Point"}, "properties": {"address": "Germany", "id": 100075, "name": "Unter den Eichen/Drakestr. (Berlin)", "subCategory": ""}, "type": "Feature"}, {"geometry": {"coordinates": [13.362763240498, 52.412576803144], "type": "Point"}, "properties": {"address": "Marienfelder Allee", "id": 100076, "name": "Therapiezentrum & Rehasport", "subCategory": "Medical Center"}, "type": "Feature"}, {"geometry": {"coordinates": [13.394061504233, 52.541772074278], "type": "Point"}, "properties": {"address": "", "id": 100090, "name": "m-broker.de Mietwagen24 mw GmbH", "subCategory": "Rental Car Location"}, "type": "Feature"}, {"geometry": {"coordinates": [13.352750112436, 52.484557540669], "type": "Point"}, "properties": {"address": "Hauptstra\u00dfe 34-35", "id": 100099, "name": "R\u00f6ntgeninstitut Hauptstra\u00dfe", "subCategory": "Doctor's Office"}, "type": "Feature"}, {"geometry": {"coordinates": [13.353115, 52.533934], "type": "Point"}, "properties": {"address": "Perleberger Stra\u00dfe 61A, Berlin, Germany", "id": 100109, "name": "Polizeirevier Abschnitt 33", "subCategory": ""}, "type": "Feature"}, {"geometry": {"coordinates": [13.348658, 52.522867], "type": "Point"}, "properties": {"address": "Kirchstra\u00dfe 7, Berlin, Germany", "id": 100110, "name": "Verwaltungsgericht Berlin", "subCategory": ""}, "type": "Feature"}, {"geometry": {"coordinates": [13.290644, 52.47533], "type": "Point"}, "properties": {"address": "Germany", "id": 100112, "name": "Berkaer Str./Breite Str. (Berlin)", "subCategory": ""}, "type": "Feature"}, {"geometry": {"coordinates": [13.46629858017, 52.508610781885], "type": "Point"}, "properties": {"address": "Holteistra\u00dfe", "id": 100114, "name": "H Boxhagener Stra\u00dfe / Holteistra\u00dfe", "subCategory": "Light Rail"}, "type": "Feature"}, {"geometry": {"coordinates": [13.317306, 52.453885], "type": "Point"}, "properties": {"address": "Schlo\u00dfstra\u00dfe 67, Berlin-Steglitz, Deutschland", "id": 100116, "name": "Dr. med. dent. J\u00fcrgen Zimmer", "subCategory": ""}, "type": "Feature"}, {"geometry": {"coordinates": [13.383107185364, 52.530529863676], "type": "Point"}, "properties": {"address": "Chausseestr.", "id": 100117, "name": "H U Naturkundemuseum", "subCategory": "Light Rail"}, "type": "Feature"}, {"geometry": {"coordinates": [13.497594509158, 52.506466184666], "type": "Point"}, "properties": {"address": "Weitlingstr.", "id": 100120, "name": "Weitlingstra\u00dfe", "subCategory": "Road"}, "type": "Feature"}, {"geometry": {"coordinates": [13.178675, 52.421424], "type": "Point"}, "properties": {"address": "", "id": 100122, "name": "Taxihalte Bhf. Wannsee", "subCategory": "Taxi"}, "type": "Feature"}, {"geometry": {"coordinates": [13.465204238892, 52.51449720275], "type": "Point"}, "properties": {"address": "Frankfurter Allee 54/56", "id": 100123, "name": "\u00c4rztehaus", "subCategory": "Medical Center"}, "type": "Feature"}, {"geometry": {"coordinates": [13.314314, 52.474743], "type": "Point"}, "properties": {"address": "A\u00dfmannshauser Strasse 11a", "id": 100124, "name": "Kinderarztpraxis Karsten Rugo Wagner", "subCategory": "Medical Center"}, "type": "Feature"}, {"geometry": {"coordinates": [13.41294803842, 52.52119063075], "type": "Point"}, "properties": {"address": "Alexanderplatz 1", "id": 100126, "name": "alex eins", "subCategory": "Dentist's Office"}, "type": "Feature"}, {"geometry": {"coordinates": [13.369889, 52.542895], "type": "Point"}, "properties": {"address": "Reinickendorfer Str.15", "id": 100127, "name": "Praxis Dr.Andreessen", "subCategory": "Medical Center"}, "type": "Feature"}, {"geometry": {"coordinates": [13.180364986601, 52.528459042369], "type": "Point"}, "properties": {"address": "Ebersdorfer Str. 94", "id": 100140, "name": "Tierarztpraxis Gisela Henke", "subCategory": "Veterinarian"}, "type": "Feature"}, {"geometry": {"coordinates": [13.428992231738, 52.484722846756], "type": "Point"}, "properties": {"address": "Karl-Marx-Str. 27", "id": 100142, "name": "MEDECO Zahnklinik Neuk\u00f6lln", "subCategory": "Dentist's Office"}, "type": "Feature"}, {"geometry": {"coordinates": [13.465951, 52.493194], "type": "Point"}, "properties": {"address": "", "id": 100145, "name": "Souvenir Boat", "subCategory": "Boat or Ferry"}, "type": "Feature"}, {"geometry": {"coordinates": [13.442917, 52.600368], "type": "Point"}, "properties": {"address": "", "id": 100185, "name": "EN 300 - Berlin -> Malm\u00f6", "subCategory": "Train"}, "type": "Feature"}, {"geometry": {"coordinates": [13.426477, 52.487555], "type": "Point"}, "properties": {"address": "Germany", "id": 100188, "name": "U Hermannplatz/Sonnenallee (Berlin)", "subCategory": ""}, "type": "Feature"}, {"geometry": {"coordinates": [13.424874544144, 52.487853471356], "type": "Point"}, "properties": {"address": "Urbanstra\u00dfe", "id": 100190, "name": "H U Hermannplatz/Urbanstra\u00dfe", "subCategory": "Bus Station"}, "type": "Feature"}, {"geometry": {"coordinates": [13.403715487841, 52.550477946295], "type": "Point"}, "properties": {"address": "Malm\u00f6er Stra\u00dfe", "id": 100193, "name": "Malm\u00f6er Strasse", "subCategory": "Road"}, "type": "Feature"}, {"geometry": {"coordinates": [13.30219, 52.553142], "type": "Point"}, "properties": {"address": "Kurt-Schumacher-Damm 176, Berlin, Germany", "id": 100194, "name": "McParking", "subCategory": ""}, "type": "Feature"}, {"geometry": {"coordinates": [13.515312, 52.505719], "type": "Point"}, "properties": {"address": "Alfred-Kowalke-Stra\u00dfe 39, Berlin, Germany", "id": 100196, "name": "Karin Sokolowski", "subCategory": ""}, "type": "Feature"}, {"geometry": {"coordinates": [13.32461, 52.428279], "type": "Point"}, "properties": {"address": "K\u00f6nigsberger Stra\u00dfe 46, Berlin, Germany", "id": 100197, "name": "K\u00f6rperkultur", "subCategory": ""}, "type": "Feature"}, {"geometry": {"coordinates": [13.378934, 52.523428], "type": "Point"}, "properties": {"address": "Charitestra\u00dfe 1, Berlin, Germany", "id": 100201, "name": "Charit\u00e9", "subCategory": ""}, "type": "Feature"}, {"geometry": {"coordinates": [13.272528, 52.53632], "type": "Point"}, "properties": {"address": "Siemensdamm 48, Berlin, Germany", "id": 100202, "name": "Physiotherapiepraxis Direkt", "subCategory": ""}, "type": "Feature"}], "type": "FeatureCollection"}