{"features": [{"geometry": {"coordinates": [13.46175956167, 52.517113887391], "type": "Point"}, "properties": {"address": "Rigaer Stra\u00dfe 25", "id": 91911, "name": "Casablanca", "subCategory": "Falafel Restaurant"}, "type": "Feature"}, {"geometry": {"coordinates": [13.32805032307, 52.506011569827], "type": "Point"}, "properties": {"address": "Fasanenstr. 9-10", "id": 91920, "name": "Hotel Savoy Berlin", "subCategory": "Hotel"}, "type": "Feature"}, {"geometry": {"coordinates": [13.449347019196, 52.511193329824], "type": "Point"}, "properties": {"address": "Gubener Str. 42", "id": 91947, "name": "Upstalsboom Hotel", "subCategory": "Hotel"}, "type": "Feature"}, {"geometry": {"coordinates": [13.319578369231, 52.500142117474], "type": "Point"}, "properties": {"address": "Bleibtreustr. 31", "id": 91956, "name": "Hotel Bleibtreu", "subCategory": "Hotel"}, "type": "Feature"}, {"geometry": {"coordinates": [13.331705331802, 52.502707245292], "type": "Point"}, "properties": {"address": "Augsburger Str. 41", "id": 92003, "name": "Hotel Concorde Berlin", "subCategory": "Hotel"}, "type": "Feature"}, {"geometry": {"coordinates": [13.385203007038, 52.504889734436], "type": "Point"}, "properties": {"address": "Anhalter Str. 8-9", "id": 92007, "name": "relexa hotel Stuttgarter Hof", "subCategory": "Hotel"}, "type": "Feature"}, {"geometry": {"coordinates": [13.206662999648, 52.540717146866], "type": "Point"}, "properties": {"address": "Neuendorfer Str. 1", "id": 92019, "name": "Brauhaus Spandau", "subCategory": "Brewery"}, "type": "Feature"}, {"geometry": {"coordinates": [13.396631, 52.527243], "type": "Point"}, "properties": {"address": "Kleine Hamburger Str. 16", "id": 92022, "name": "Strandbad-Mitte", "subCategory": "Breakfast Spot"}, "type": "Feature"}, {"geometry": {"coordinates": [13.423297405243, 52.53701698908], "type": "Point"}, "properties": {"address": "Prenzlauer Allee  47", "id": 92032, "name": "\u00dcbereck", "subCategory": "Pub"}, "type": "Feature"}, {"geometry": {"coordinates": [13.349604916224, 52.546727569166], "type": "Point"}, "properties": {"address": "Br\u00fcsseler Str. 39", "id": 92034, "name": "L' Escargot", "subCategory": "French Restaurant"}, "type": "Feature"}, {"geometry": {"coordinates": [13.41651005, 52.502578496933], "type": "Point"}, "properties": {"address": "Oranienplatz 11-13", "id": 92052, "name": "KuchenKaiser", "subCategory": "German Restaurant"}, "type": "Feature"}, {"geometry": {"coordinates": [13.320738319462, 52.477286612655], "type": "Point"}, "properties": {"address": "Laubacher Str. 29", "id": 92056, "name": "Stra\u00dfenbahn", "subCategory": "Pub"}, "type": "Feature"}, {"geometry": {"coordinates": [13.353222, 52.490184], "type": "Point"}, "properties": {"address": "Goltzstr. 2", "id": 92060, "name": "Tee Tea Th\u00e9", "subCategory": "Tea Room"}, "type": "Feature"}, {"geometry": {"coordinates": [13.446037, 52.49888], "type": "Point"}, "properties": {"address": "Schlesische Str. 18", "id": 92064, "name": "FABRIK-CAF\u00c9", "subCategory": "Caf\u00e9"}, "type": "Feature"}, {"geometry": {"coordinates": [13.4174748, 52.5042057], "type": "Point"}, "properties": {"address": "Leuschnerdamm 25", "id": 92079, "name": "Die Henne", "subCategory": "German Restaurant"}, "type": "Feature"}, {"geometry": {"coordinates": [13.30643627424, 52.523603607], "type": "Point"}, "properties": {"address": "Leibnizstra\u00dfe 45", "id": 92083, "name": "Pasticceria e Rosticceria Italiana", "subCategory": "Caf\u00e9"}, "type": "Feature"}, {"geometry": {"coordinates": [13.322867616164, 52.505010688433], "type": "Point"}, "properties": {"address": "Savignyplatz 1", "id": 92099, "name": "Caf\u00e9 Brel", "subCategory": "French Restaurant"}, "type": "Feature"}, {"geometry": {"coordinates": [13.3402748, 52.4586813], "type": "Point"}, "properties": {"address": "Bergstra\u00dfe 68", "id": 92125, "name": "Ackerkeller", "subCategory": "Dive Bar"}, "type": "Feature"}, {"geometry": {"coordinates": [13.583303397481, 52.455445695432], "type": "Point"}, "properties": {"address": "Seelenbinderstra\u00dfe 54", "id": 92155, "name": "Cafe HDJK", "subCategory": "Caf\u00e9"}, "type": "Feature"}, {"geometry": {"coordinates": [13.456984408264, 52.51577822478], "type": "Point"}, "properties": {"address": "Frankfurter Allee 11", "id": 92159, "name": "Cafe Tasso", "subCategory": "Caf\u00e9"}, "type": "Feature"}, {"geometry": {"coordinates": [13.4000518, 52.5228153], "type": "Point"}, "properties": {"address": "Monbijouplatz 12", "id": 92186, "name": "a Posto", "subCategory": "Italian Restaurant"}, "type": "Feature"}, {"geometry": {"coordinates": [13.412198, 52.540808], "type": "Point"}, "properties": {"address": "Sch\u00f6nhauser Allee 45", "id": 92188, "name": "Manolo", "subCategory": "Coffee Shop"}, "type": "Feature"}, {"geometry": {"coordinates": [13.409457206726, 52.520705983505], "type": "Point"}, "properties": {"address": "Panoramastr. 1", "id": 92203, "name": "Fernsehturm | TV Tower", "subCategory": "Scenic Lookout"}, "type": "Feature"}, {"geometry": {"coordinates": [13.238527464079, 52.442097492029], "type": "Point"}, "properties": {"address": "Argentinische Allee 30", "id": 92379, "name": "Haus am Waldsee", "subCategory": "Art Museum"}, "type": "Feature"}, {"geometry": {"coordinates": [13.299777882097, 52.505052344769], "type": "Point"}, "properties": {"address": "Stuttgarter Platz 20", "id": 92408, "name": "Gasthaus Lentz", "subCategory": "Restaurant"}, "type": "Feature"}, {"geometry": {"coordinates": [13.291168, 52.515374], "type": "Point"}, "properties": {"address": "Seelingstra\u00dfe 36", "id": 92410, "name": "Angkor", "subCategory": "Asian Restaurant"}, "type": "Feature"}, {"geometry": {"coordinates": [13.394177, 52.49061], "type": "Point"}, "properties": {"address": "Zossener Str. 19", "id": 92423, "name": "Tibet-Haus", "subCategory": "Asian Restaurant"}, "type": "Feature"}, {"geometry": {"coordinates": [13.374037259618, 52.509861291962], "type": "Point"}, "properties": {"address": "Bellevuestr. 1", "id": 92447, "name": "Kaisersaal", "subCategory": "Restaurant"}, "type": "Feature"}, {"geometry": {"coordinates": [13.380467891693, 52.515045647732], "type": "Point"}, "properties": {"address": "Behrenstra\u00dfe 72", "id": 92449, "name": "China Club", "subCategory": "Chinese Restaurant"}, "type": "Feature"}, {"geometry": {"coordinates": [13.401939529091, 52.522920622098], "type": "Point"}, "properties": {"address": "Neue Promenade 5", "id": 92451, "name": "Weihenstephaner Berlin", "subCategory": "German Restaurant"}, "type": "Feature"}, {"geometry": {"coordinates": [13.389113381732, 52.482799661023], "type": "Point"}, "properties": {"address": "Tempelhofer Damm", "id": 92452, "name": "La Vie En Rose Revuetheater", "subCategory": "German Restaurant"}, "type": "Feature"}, {"geometry": {"coordinates": [13.360405584668, 52.552625743922], "type": "Point"}, "properties": {"address": "Oudenarder Strasse 16-20", "id": 92455, "name": "LaLuz", "subCategory": "German Restaurant"}, "type": "Feature"}, {"geometry": {"coordinates": [13.373708724976, 52.508855657039], "type": "Point"}, "properties": {"address": "Potsdamer Str. 3", "id": 92457, "name": "FACIL", "subCategory": "Restaurant"}, "type": "Feature"}, {"geometry": {"coordinates": [13.32160949707, 52.513517819683], "type": "Point"}, "properties": {"address": "Ernst-Reuter-Pl. 9", "id": 92596, "name": "GRAVIS Store", "subCategory": "Electronics Store"}, "type": "Feature"}, {"geometry": {"coordinates": [13.392263158414, 52.48939423], "type": "Point"}, "properties": {"address": "Bergmannstra\u00dfe 93", "id": 92636, "name": "Aki Tatsu - Sushi & More", "subCategory": "Sushi Restaurant"}, "type": "Feature"}, {"geometry": {"coordinates": [13.412205753003, 52.502677016003], "type": "Point"}, "properties": {"address": "Prinzessinnenstr. 19-20", "id": 92638, "name": "betahaus", "subCategory": "Coworking Space"}, "type": "Feature"}, {"geometry": {"coordinates": [13.40789502474, 52.549105222538], "type": "Point"}, "properties": {"address": "Kopenhagener Str. 16", "id": 92641, "name": "Kohlenquelle", "subCategory": "Italian Restaurant"}, "type": "Feature"}, {"geometry": {"coordinates": [13.405342607494, 52.534152639813], "type": "Point"}, "properties": {"address": "Kastanienallee 49", "id": 92646, "name": "W - Der Imbiss", "subCategory": "Vegetarian / Vegan Restaurant"}, "type": "Feature"}, {"geometry": {"coordinates": [13.467538, 52.504706], "type": "Point"}, "properties": {"address": "Sonntagstra\u00dfe 2", "id": 92647, "name": "Burgers Berlin", "subCategory": "Burger Joint"}, "type": "Feature"}, {"geometry": {"coordinates": [13.402553, 52.531035], "type": "Point"}, "properties": {"address": "Weinbergsweg 8", "id": 92648, "name": "Cafe Galao", "subCategory": "Caf\u00e9"}, "type": "Feature"}, {"geometry": {"coordinates": [13.394140687878, 52.490624514601], "type": "Point"}, "properties": {"address": "Zossener Stra\u00dfe 34", "id": 92653, "name": "Cuccuma Espresso & Focaccia", "subCategory": "Coffee Shop"}, "type": "Feature"}, {"geometry": {"coordinates": [13.40808391571, 52.527631884323], "type": "Point"}, "properties": {"address": "Alte Sch\u00f6nhauser Str. 6", "id": 92654, "name": "YamYam", "subCategory": "Korean Restaurant"}, "type": "Feature"}, {"geometry": {"coordinates": [13.415609946943, 52.534105158202], "type": "Point"}, "properties": {"address": "Kollwitzstrasse 42", "id": 92655, "name": "Meierei", "subCategory": "Swiss Restaurant"}, "type": "Feature"}, {"geometry": {"coordinates": [13.399968, 52.529582], "type": "Point"}, "properties": {"address": "Torstr. 134", "id": 92657, "name": "DUDU", "subCategory": "Vietnamese Restaurant"}, "type": "Feature"}, {"geometry": {"coordinates": [13.402375543551, 52.528664392482], "type": "Point"}, "properties": {"address": "Rosenthaler Str. 68", "id": 92669, "name": "Transit", "subCategory": "Asian Restaurant"}, "type": "Feature"}, {"geometry": {"coordinates": [13.425765037537, 52.478023315263], "type": "Point"}, "properties": {"address": "Hermannstr. 51", "id": 92682, "name": "BackWERK", "subCategory": "Bakery"}, "type": "Feature"}, {"geometry": {"coordinates": [13.42136166483, 52.541737753563], "type": "Point"}, "properties": {"address": "G\u00f6hrener Str. 5", "id": 92688, "name": "Caf\u00e9 Restaurant Osswald", "subCategory": "German Restaurant"}, "type": "Feature"}, {"geometry": {"coordinates": [13.395738, 52.48922643], "type": "Point"}, "properties": {"address": "Marheinekeplatz 15", "id": 92695, "name": "Matzbach", "subCategory": "German Restaurant"}, "type": "Feature"}, {"geometry": {"coordinates": [13.4190356403, 52.500945387739], "type": "Point"}, "properties": {"address": "Adalbertstr.10", "id": 92697, "name": "Hasir Restaurant", "subCategory": "Turkish Restaurant"}, "type": "Feature"}, {"geometry": {"coordinates": [13.337225, 52.513972], "type": "Point"}, "properties": {"address": "Stra\u00dfe des 17. Juni 100", "id": 92698, "name": "Burger King", "subCategory": "Burger Joint"}, "type": "Feature"}], "type": "FeatureCollection"}